data = [{"name":"Lyza","description":"Kassim","latitude":3.1358175,"longitude":101.5990162,"total_price":"60.00","city":"Petaling Jaya"},{"name":"Sham","description":"AC Nair","latitude":3.100965,"longitude":101.5916903,"total_price":"41.00","city":"Petaling Jaya"},{"name":"Suryani","description":"Alias","latitude":3.1664287,"longitude":101.6786556,"total_price":"51.00","city":"Kuala Lumpur"},{"name":"Parveena","description":"Selvarajah","latitude":3.1666433,"longitude":101.6503399,"total_price":"41.00","city":"Kuala Lumpur"},{"name":"Manu","description":"Shubahshini","latitude":3.0440027,"longitude":101.7932016,"total_price":"50.00","city":"Kajang"},{"name":"Cassandra","description":"Perez","latitude":3.1005021,"longitude":101.6547334,"total_price":"41.00","city":"Petaling Jaya"},{"name":"Mel","description":"Md","latitude":3.1530807,"longitude":101.6600008,"total_price":"51.00","city":"kuala lumpur"},{"name":"Shariza","description":"Ashraf","latitude":3.1604493,"longitude":101.6415722,"total_price":"41.00","city":"Kuala Lumpur"},{"name":"Sharifah Najwa","description":"Syed Abu Bakar","latitude":3.1746422,"longitude":101.5831356,"total_price":"41.00","city":"Petaling Jaya"},{"name":"Fiona","description":"Bodipalar","latitude":3.1041113,"longitude":101.62651,"total_price":"83.00","city":"Petaling Jaya"},{"name":"Victoria","description":"Choux","latitude":3.1212361,"longitude":101.6670287,"total_price":"41.00","city":"Bangsar"},{"name":"Logeetha","description":"Balakrishnan","latitude":3.2102157,"longitude":101.6821012,"total_price":"41.00","city":"Kuala Lumpur"},{"name":"Amalina","description":"Murad","latitude":3.034725,"longitude":101.7533136,"total_price":"41.00","city":"Batu 9 ,Cheras"},{"name":"Sheila","description":"Singam","latitude":3.1728282,"longitude":101.6537801,"total_price":"41.00","city":"Kuala Lumpur"},{"name":"Carmen","description":"Nge","latitude":3.1158326,"longitude":101.5912522,"total_price":"61.00","city":"Petaling Jaya"},{"name":"Elaine","description":"Yuen","latitude":3.1330765,"longitude":101.7416874,"total_price":"41.00","city":"Kuala Lumpur"},{"name":"Mei Chuen","description":"Thong","latitude":3.1524969,"longitude":101.6482431,"total_price":"41.00","city":"Kuala Lumpur"},{"name":"Tunku","description":"Alina","latitude":3.1041761,"longitude":101.6775994,"total_price":"61.00","city":"Kuala Lumpur"},{"name":"Cynthia","description":"Lim","latitude":3.1209526,"longitude":101.5779475,"total_price":"61.00","city":"PETALING JAYA"},{"name":"Julie","description":"Thomas","latitude":3.0989901,"longitude":101.6269285,"total_price":"41.00","city":"Petaling Jaya"},{"name":"Rebecca","description":"Jo Rushdy","latitude":3.1212361,"longitude":101.6670287,"total_price":"41.00","city":"Kuala Lumpur"},{"name":"Victoria","description":"Choux","latitude":3.1212361,"longitude":101.6670287,"total_price":"41.00","city":"Bangsar"},{"name":"Shamini","description":"Reddy","latitude":3.1720186,"longitude":101.6030353,"total_price":"45.00","city":"Petaling Jaya"},{"name":"Fiona","description":"Bodipalar","latitude":3.1041113,"longitude":101.62651,"total_price":"83.00","city":"Petaling Jaya"},{"name":"Pamela","description":"Kung","latitude":3.17782,"longitude":101.6022638,"total_price":"60.00","city":"Petaling Jaya"},{"name":"Logaambighaai","description":"Thiru Kumar","latitude":3.2343145,"longitude":101.696142,"total_price":"51.00","city":"Batu caves"},{"name":"Archana","description":"Menon","latitude":3.207319,"longitude":101.5889874,"total_price":"41.00","city":"Sg Buluh"},{"name":"Leandro","description":"Venier","latitude":3.152029,"longitude":101.738007,"total_price":"60.00","city":"Desa Pandan"},{"name":"Aim","description":"Aris","latitude":3.1547267,"longitude":101.7073669,"total_price":"51.00","city":"Kuala Lumpur"},{"name":"Meena Lakshana","description":"Ramadas","latitude":3.1666111,"longitude":101.6050679,"total_price":"50.00","city":"Petaling Jaya"},{"name":"Sham","description":"AC Nair","latitude":3.100965,"longitude":101.5916903,"total_price":"41.00","city":"Petaling Jaya"},{"name":"Parveena","description":"Selvarajah","latitude":3.1666433,"longitude":101.6503399,"total_price":"41.00","city":"Kuala Lumpur"},{"name":"Suryani","description":"Alias","latitude":3.1664287,"longitude":101.6786556,"total_price":"51.00","city":"Kuala Lumpur"},{"name":"Suzana","description":"Ahmad","latitude":3.1459825,"longitude":101.5055687,"total_price":"18.00","city":"Shah Alam"},{"name":"Logeetha","description":"Balakrishnan","latitude":3.2102157,"longitude":101.6821012,"total_price":"41.00","city":"Kuala Lumpur"},{"name":"Shariza","description":"Ashraf","latitude":3.1604493,"longitude":101.6415722,"total_price":"41.00","city":"Kuala Lumpur"},{"name":"Sharifah Najwa","description":"Syed Abu Bakar","latitude":3.1746422,"longitude":101.5831356,"total_price":"41.00","city":"Petaling Jaya"},{"name":"Cassandra","description":"Perez","latitude":3.1005021,"longitude":101.6547334,"total_price":"41.00","city":"Petaling Jaya"},{"name":"Victoria","description":"Choux","latitude":3.1212361,"longitude":101.6670287,"total_price":"41.00","city":"Bangsar"},{"name":"Fiona","description":"Bodipalar","latitude":3.1041113,"longitude":101.62651,"total_price":"83.00","city":"Petaling Jaya"},{"name":"Mel","description":"Md","latitude":3.1530807,"longitude":101.6600008,"total_price":"51.00","city":"kuala lumpur"},{"name":"Julie","description":"Thomas","latitude":3.0989901,"longitude":101.6269285,"total_price":"41.00","city":"Petaling Jaya"},{"name":"Rebecca","description":"Jo Rushdy","latitude":3.1212361,"longitude":101.6670287,"total_price":"41.00","city":"Kuala Lumpur"},{"name":"Carmen","description":"Nge","latitude":3.1158326,"longitude":101.5912522,"total_price":"41.00","city":"Petaling Jaya"},{"name":"Sheila","description":"Singam","latitude":3.1728282,"longitude":101.6537801,"total_price":"41.00","city":"Kuala Lumpur"},{"name":"Mei Chuen","description":"Thong","latitude":3.1524969,"longitude":101.6482431,"total_price":"41.00","city":"Kuala Lumpur"},{"name":"Elaine","description":"Yuen","latitude":3.1330765,"longitude":101.7416874,"total_price":"41.00","city":"Kuala Lumpur"}]
